{
"type": "FeatureCollection",
"name": "pedloc",
"crs": { "type": "name", "properties": { "name": "urn:ogc:def:crs:OGC:1.3:CRS84" } },
"features": [
{ "type": "Feature", "properties": { "Loc": 1.0, "Borough": "Bronx", "Street_Nam": "Broadway", "From_Stree": "West 231st Street", "To_Street": "Naples Terrace", "Index": "N" }, "geometry": { "type": "Point", "coordinates": [ -73.904591524508874, 40.879199390029676 ] } },
{ "type": "Feature", "properties": { "Loc": 2.0, "Borough": "Bronx", "Street_Nam": "East 161st Street", "From_Stree": "Grand Concourse", "To_Street": "Sheridan Avenue", "Index": "Y" }, "geometry": { "type": "Point", "coordinates": [ -73.92188445787049, 40.826628437136328 ] } },
{ "type": "Feature", "properties": { "Loc": 3.0, "Borough": "Bronx", "Street_Nam": "East Fordham Road", "From_Stree": "Valentine Avenue", "To_Street": "Tiebout Avenue", "Index": "Y" }, "geometry": { "type": "Point", "coordinates": [ -73.895357910061605, 40.862155069643144 ] } },
{ "type": "Feature", "properties": { "Loc": 4.0, "Borough": "Bronx", "Street_Nam": "East Gun Hill Road", "From_Stree": "Bainbridge Avenue", "To_Street": "Rochambeau Avenue", "Index": "N" }, "geometry": { "type": "Point", "coordinates": [ -73.878924748303987, 40.881287457622001 ] } },
{ "type": "Feature", "properties": { "Loc": 5.0, "Borough": "Bronx", "Street_Nam": "East Tremont Avenue", "From_Stree": "Prospect Avenue", "To_Street": "Clinton Avenue", "Index": "N" }, "geometry": { "type": "Point", "coordinates": [ -73.889563973308924, 40.844637286295544 ] } },
{ "type": "Feature", "properties": { "Loc": 6.0, "Borough": "Bronx", "Street_Nam": "Grand Concourse", "From_Stree": "East 164th Street", "To_Street": "East 165th Street", "Index": "Y" }, "geometry": { "type": "Point", "coordinates": [ -73.920878376411977, 40.830159045705237 ] } },
{ "type": "Feature", "properties": { "Loc": 7.0, "Borough": "Bronx", "Street_Nam": "Third Avenue", "From_Stree": "East 150th Street", "To_Street": "East 151st Street", "Index": "Y" }, "geometry": { "type": "Point", "coordinates": [ -73.916357488157445, 40.816887980480807 ] } },
{ "type": "Feature", "properties": { "Loc": 8.0, "Borough": "Bronx", "Street_Nam": "White Plains Road", "From_Stree": "Pelham Parkway South", "To_Street": "Lydig Avenue", "Index": "Y" }, "geometry": { "type": "Point", "coordinates": [ -73.8676735680245, 40.855589243303278 ] } },
{ "type": "Feature", "properties": { "Loc": 9.0, "Borough": "Brooklyn", "Street_Nam": "5th Avenue", "From_Stree": "51st Street", "To_Street": "52nd Street", "Index": "Y" }, "geometry": { "type": "Point", "coordinates": [ -74.011192988556587, 40.64426715038222 ] } },
{ "type": "Feature", "properties": { "Loc": 10.0, "Borough": "Brooklyn", "Street_Nam": "5th Avenue", "From_Stree": "Union Street", "To_Street": "President Street", "Index": "Y" }, "geometry": { "type": "Point", "coordinates": [ -73.980676538275432, 40.676093975325003 ] } },
{ "type": "Feature", "properties": { "Loc": 11.0, "Borough": "Brooklyn", "Street_Nam": "7th Avenue", "From_Stree": "9th Street", "To_Street": "8th Street", "Index": "Y" }, "geometry": { "type": "Point", "coordinates": [ -73.981342107062574, 40.667174571606935 ] } },
{ "type": "Feature", "properties": { "Loc": 12.0, "Borough": "Brooklyn", "Street_Nam": "86th Street", "From_Stree": "4th Avenue", "To_Street": "5th Avenue", "Index": "Y" }, "geometry": { "type": "Point", "coordinates": [ -74.027286761914127, 40.622139097899925 ] } },
{ "type": "Feature", "properties": { "Loc": 13.0, "Borough": "Brooklyn", "Street_Nam": "Atlantic Avenue", "From_Stree": "Boerum Place", "To_Street": "Smith Street", "Index": "N" }, "geometry": { "type": "Point", "coordinates": [ -73.989831767667795, 40.688848264217462 ] } },
{ "type": "Feature", "properties": { "Loc": 14.0, "Borough": "Brooklyn", "Street_Nam": "Bedford Avenue", "From_Stree": "North 7th Street", "To_Street": "North 6th Street", "Index": "Y" }, "geometry": { "type": "Point", "coordinates": [ -73.958022464963776, 40.717557923907442 ] } },
{ "type": "Feature", "properties": { "Loc": 15.0, "Borough": "Brooklyn", "Street_Nam": "Brighton Beach Avenue", "From_Stree": "Brighton 4th Street", "To_Street": "Brighton 5th Street", "Index": "Y" }, "geometry": { "type": "Point", "coordinates": [ -73.962763233564957, 40.577327434870348 ] } },
{ "type": "Feature", "properties": { "Loc": 16.0, "Borough": "Brooklyn", "Street_Nam": "Church Avenue", "From_Stree": "Nostrand Avenue", "To_Street": "East 31st Street", "Index": "Y" }, "geometry": { "type": "Point", "coordinates": [ -73.949081300047013, 40.650831914653317 ] } },
{ "type": "Feature", "properties": { "Loc": 17.0, "Borough": "Brooklyn", "Street_Nam": "Cortelyou Road", "From_Stree": "Argyle Road", "To_Street": "Rugby Road", "Index": "N" }, "geometry": { "type": "Point", "coordinates": [ -73.965737287624805, 40.640627792235605 ] } },
{ "type": "Feature", "properties": { "Loc": 18.0, "Borough": "Brooklyn", "Street_Nam": "Court Street", "From_Stree": "Atlantic Avenue", "To_Street": "Pacific Street", "Index": "Y" }, "geometry": { "type": "Point", "coordinates": [ -73.992493487106302, 40.689425823519088 ] } },
{ "type": "Feature", "properties": { "Loc": 19.0, "Borough": "Brooklyn", "Street_Nam": "Eastern Parkway", "From_Stree": "Plaza Street East", "To_Street": "Underhill Avenue", "Index": "Y" }, "geometry": { "type": "Point", "coordinates": [ -73.968187290492978, 40.672925689779213 ] } },
{ "type": "Feature", "properties": { "Loc": 20.0, "Borough": "Brooklyn", "Street_Nam": "Flatbush Avenue", "From_Stree": "Avenue U", "To_Street": "Avenue V", "Index": "N" }, "geometry": { "type": "Point", "coordinates": [ -73.921495075519971, 40.608921255449388 ] } },
{ "type": "Feature", "properties": { "Loc": 21.0, "Borough": "Brooklyn", "Street_Nam": "Flatbush Avenue", "From_Stree": "Martense Street", "To_Street": "Church Avenue", "Index": "Y" }, "geometry": { "type": "Point", "coordinates": [ -73.958821820145687, 40.650810966318048 ] } },
{ "type": "Feature", "properties": { "Loc": 22.0, "Borough": "Brooklyn", "Street_Nam": "Flatbush Avenue", "From_Stree": "St. Marks Avenue", "To_Street": "Prospect Place", "Index": "N" }, "geometry": { "type": "Point", "coordinates": [ -73.97390971725747, 40.679187447872437 ] } },
{ "type": "Feature", "properties": { "Loc": 23.0, "Borough": "Brooklyn", "Street_Nam": "Fulton Street", "From_Stree": "Lawrence Street", "To_Street": "Bridge Street", "Index": "Y" }, "geometry": { "type": "Point", "coordinates": [ -73.985886818173, 40.690872322464266 ] } },
{ "type": "Feature", "properties": { "Loc": 24.0, "Borough": "Brooklyn", "Street_Nam": "Graham Avenue", "From_Stree": "Moore Street", "To_Street": "Varet Street", "Index": "Y" }, "geometry": { "type": "Point", "coordinates": [ -73.942554690991969, 40.703408808453446 ] } },
{ "type": "Feature", "properties": { "Loc": 25.0, "Borough": "Brooklyn", "Street_Nam": "Grand Street", "From_Stree": "Manhattan Avenue", "To_Street": "Graham Avenue", "Index": "N" }, "geometry": { "type": "Point", "coordinates": [ -73.944666882272372, 40.711569774491871 ] } },
{ "type": "Feature", "properties": { "Loc": 26.0, "Borough": "Brooklyn", "Street_Nam": "Jay Street", "From_Stree": "Willoughby Street", "To_Street": "Metrotech Walk", "Index": "Y" }, "geometry": { "type": "Point", "coordinates": [ -73.987274910498172, 40.692724599763451 ] } },
{ "type": "Feature", "properties": { "Loc": 27.0, "Borough": "Brooklyn", "Street_Nam": "Kings Highway", "From_Stree": "East 13th Street", "To_Street": "East 14th Street", "Index": "N" }, "geometry": { "type": "Point", "coordinates": [ -73.95959341683789, 40.608201815134763 ] } },
{ "type": "Feature", "properties": { "Loc": 28.0, "Borough": "Brooklyn", "Street_Nam": "Montague Street", "From_Stree": "Henry Street", "To_Street": "Clinton Street", "Index": "Y" }, "geometry": { "type": "Point", "coordinates": [ -73.993364399611309, 40.694535315493681 ] } },
{ "type": "Feature", "properties": { "Loc": 29.0, "Borough": "Brooklyn", "Street_Nam": "Myrtle Avenue", "From_Stree": "Vanderbilt Avenue", "To_Street": "Clinton Avenue", "Index": "N" }, "geometry": { "type": "Point", "coordinates": [ -73.969320000119353, 40.693115133887176 ] } },
{ "type": "Feature", "properties": { "Loc": 30.0, "Borough": "Brooklyn", "Street_Nam": "Old Fulton Street", "From_Stree": "Elizabeth Place", "To_Street": "Everit Place", "Index": "N" }, "geometry": { "type": "Point", "coordinates": [ -73.993996960965475, 40.702746951997753 ] } },
{ "type": "Feature", "properties": { "Loc": 31.0, "Borough": "Brooklyn", "Street_Nam": "Pitkin Avenue", "From_Stree": "Bristol Street", "To_Street": "Hopkinson Avenue", "Index": "Y" }, "geometry": { "type": "Point", "coordinates": [ -73.913078509756005, 40.669335099259428 ] } },
{ "type": "Feature", "properties": { "Loc": 32.0, "Borough": "Brooklyn", "Street_Nam": "Sheepshead Bay Road", "From_Stree": "East 14th Street", "To_Street": "East 15th Street", "Index": "Y" }, "geometry": { "type": "Point", "coordinates": [ -73.954750757482302, 40.587543733856464 ] } },
{ "type": "Feature", "properties": { "Loc": 33.0, "Borough": "Brooklyn", "Street_Nam": "VanBrunt Street", "From_Stree": "Beard Street", "To_Street": "VanDike Street", "Index": "N" }, "geometry": { "type": "Point", "coordinates": [ -74.015114827245512, 40.675465972912299 ] } },
{ "type": "Feature", "properties": { "Loc": 34.0, "Borough": "Brooklyn", "Street_Nam": "Washington Street", "From_Stree": "Front Street", "To_Street": "Water Street", "Index": "N" }, "geometry": { "type": "Point", "coordinates": [ -73.989603447531863, 40.702862002863597 ] } },
{ "type": "Feature", "properties": { "Loc": 35.0, "Borough": "Manhattan", "Street_Nam": "Broad Street", "From_Stree": "Beaver Street", "To_Street": "South William Street", "Index": "Y" }, "geometry": { "type": "Point", "coordinates": [ -74.011557048750035, 40.704637088005185 ] } },
{ "type": "Feature", "properties": { "Loc": 36.0, "Borough": "Manhattan", "Street_Nam": "Broadway", "From_Stree": "Morris Street", "To_Street": "Exchange Place", "Index": "Y" }, "geometry": { "type": "Point", "coordinates": [ -74.012862225536423, 40.706342080485314 ] } },
{ "type": "Feature", "properties": { "Loc": 37.0, "Borough": "Manhattan", "Street_Nam": "Broadway", "From_Stree": "West 63rd Street", "To_Street": "West 64th Street", "Index": "Y" }, "geometry": { "type": "Point", "coordinates": [ -73.982197302315214, 40.771813931420752 ] } },
{ "type": "Feature", "properties": { "Loc": 38.0, "Borough": "Manhattan", "Street_Nam": "Chambers Street", "From_Stree": "West Broadway", "To_Street": "Greenwich Street", "Index": "Y" }, "geometry": { "type": "Point", "coordinates": [ -74.010093331591946, 40.715905019495686 ] } },
{ "type": "Feature", "properties": { "Loc": 39.0, "Borough": "Manhattan", "Street_Nam": "Columbus Avenue", "From_Stree": "West 75th Street", "To_Street": "West 76th Street", "Index": "N" }, "geometry": { "type": "Point", "coordinates": [ -73.977136028880736, 40.779681345336662 ] } },
{ "type": "Feature", "properties": { "Loc": 40.0, "Borough": "Manhattan", "Street_Nam": "Delancey Street", "From_Stree": "Orchard Street", "To_Street": "Ludlow Street", "Index": "Y" }, "geometry": { "type": "Point", "coordinates": [ -73.989363232893709, 40.71898986665358 ] } },
{ "type": "Feature", "properties": { "Loc": 41.0, "Borough": "Manhattan", "Street_Nam": "East 14th Street", "From_Stree": "Fifth Avenue", "To_Street": "University Place", "Index": "Y" }, "geometry": { "type": "Point", "coordinates": [ -73.992657712456662, 40.735599799735162 ] } },
{ "type": "Feature", "properties": { "Loc": 42.0, "Borough": "Manhattan", "Street_Nam": "East 42nd Street", "From_Stree": "Park Avenue", "To_Street": "Lexington Avenue", "Index": "Y" }, "geometry": { "type": "Point", "coordinates": [ -73.976655705513338, 40.751695313009293 ] } },
{ "type": "Feature", "properties": { "Loc": 43.0, "Borough": "Manhattan", "Street_Nam": "East 8th Street", "From_Stree": "University Place", "To_Street": "Greene Street", "Index": "N" }, "geometry": { "type": "Point", "coordinates": [ -73.994412268695868, 40.731436542877447 ] } },
{ "type": "Feature", "properties": { "Loc": 44.0, "Borough": "Manhattan", "Street_Nam": "Eighth Avenue", "From_Stree": "West 44th Street", "To_Street": "West 45th Street", "Index": "N" }, "geometry": { "type": "Point", "coordinates": [ -73.988615283473692, 40.758848832465162 ] } },
{ "type": "Feature", "properties": { "Loc": 45.0, "Borough": "Manhattan", "Street_Nam": "Fifth Avenue", "From_Stree": "East 54th Street", "To_Street": "East 55th Street", "Index": "Y" }, "geometry": { "type": "Point", "coordinates": [ -73.975144409937727, 40.761354169978482 ] } },
{ "type": "Feature", "properties": { "Loc": 46.0, "Borough": "Manhattan", "Street_Nam": "Forsyth Street", "From_Stree": "Canal Street", "To_Street": "Division Street", "Index": "N" }, "geometry": { "type": "Point", "coordinates": [ -73.994515498191319, 40.714936016218594 ] } },
{ "type": "Feature", "properties": { "Loc": 47.0, "Borough": "Manhattan", "Street_Nam": "Fulton Street", "From_Stree": "Broadway", "To_Street": "Nassau Street", "Index": "Y" }, "geometry": { "type": "Point", "coordinates": [ -74.008403836615798, 40.710554222385866 ] } },
{ "type": "Feature", "properties": { "Loc": 48.0, "Borough": "Manhattan", "Street_Nam": "Fulton Street", "From_Stree": "Cliff Street", "To_Street": "Pearl Street", "Index": "N" }, "geometry": { "type": "Point", "coordinates": [ -74.004518249100343, 40.708063180951477 ] } },
{ "type": "Feature", "properties": { "Loc": 49.0, "Borough": "Manhattan", "Street_Nam": "Lexington Avenue", "From_Stree": "East 57th Street", "To_Street": "East 58th Street", "Index": "Y" }, "geometry": { "type": "Point", "coordinates": [ -73.968887568773567, 40.761265174440652 ] } },
{ "type": "Feature", "properties": { "Loc": 50.0, "Borough": "Manhattan", "Street_Nam": "Madison Avenue", "From_Stree": "East 71st Street", "To_Street": "East 72nd Street", "Index": "N" }, "geometry": { "type": "Point", "coordinates": [ -73.965685331378296, 40.771441171601801 ] } },
{ "type": "Feature", "properties": { "Loc": 51.0, "Borough": "Manhattan", "Street_Nam": "Seventh Avenue", "From_Stree": "West 32nd Street", "To_Street": "West 33rd Street", "Index": "Y" }, "geometry": { "type": "Point", "coordinates": [ -73.991343108502122, 40.749996952234149 ] } },
{ "type": "Feature", "properties": { "Loc": 52.0, "Borough": "Manhattan", "Street_Nam": "Trinity Place", "From_Stree": "Rector Street", "To_Street": "Thames Street", "Index": "N" }, "geometry": { "type": "Point", "coordinates": [ -74.012575560016927, 40.708352053077313 ] } },
{ "type": "Feature", "properties": { "Loc": 53.0, "Borough": "Manhattan", "Street_Nam": "Wall Street", "From_Stree": "New Street", "To_Street": "Nassau Street", "Index": "Y" }, "geometry": { "type": "Point", "coordinates": [ -74.010986658834383, 40.707335818055213 ] } },
{ "type": "Feature", "properties": { "Loc": 54.0, "Borough": "Manhattan", "Street_Nam": "West 125th Street", "From_Stree": "Adam C. Powell Boulevard", "To_Street": "Lenox Avenue", "Index": "Y" }, "geometry": { "type": "Point", "coordinates": [ -73.947037992051165, 40.808430233986762 ] } },
{ "type": "Feature", "properties": { "Loc": 55.0, "Borough": "Manhattan", "Street_Nam": "West 14th Street", "From_Stree": "Hudson Street", "To_Street": "Eighth Avenue", "Index": "Y" }, "geometry": { "type": "Point", "coordinates": [ -74.003841210051874, 40.740305917265367 ] } },
{ "type": "Feature", "properties": { "Loc": 56.0, "Borough": "Manhattan", "Street_Nam": "West 181st Street", "From_Stree": "St. Nicholas Avenue", "To_Street": "Wadsworth Avenue", "Index": "Y" }, "geometry": { "type": "Point", "coordinates": [ -73.93434800425149, 40.849581377681098 ] } },
{ "type": "Feature", "properties": { "Loc": 57.0, "Borough": "Manhattan", "Street_Nam": "West 34th Street", "From_Stree": "Broadway", "To_Street": "Seventh Avenue", "Index": "Y" }, "geometry": { "type": "Point", "coordinates": [ -73.989345775263629, 40.750454621268879 ] } },
{ "type": "Feature", "properties": { "Loc": 58.0, "Borough": "Manhattan", "Street_Nam": "West 40th Street", "From_Stree": "Avenue of the Americas", "To_Street": "Fifth Avenue", "Index": "Y" }, "geometry": { "type": "Point", "coordinates": [ -73.983357137920422, 40.752844174257625 ] } },
{ "type": "Feature", "properties": { "Loc": 59.0, "Borough": "Manhattan", "Street_Nam": "West 47th Street", "From_Stree": "Avenue of the Americas", "To_Street": "Fifth Avenue", "Index": "N" }, "geometry": { "type": "Point", "coordinates": [ -73.980179860562856, 40.757339048239622 ] } },
{ "type": "Feature", "properties": { "Loc": 60.0, "Borough": "Manhattan", "Street_Nam": "Second Avenue", "From_Stree": "50th Street", "To_Street": "51st Street", "Index": "Y" }, "geometry": { "type": "Point", "coordinates": [ -73.968293283075226, 40.75519080023939 ] } },
{ "type": "Feature", "properties": { "Loc": 61.0, "Borough": "Manhattan", "Street_Nam": "Third Avenue", "From_Stree": "50th Street", "To_Street": "51st Street", "Index": "N" }, "geometry": { "type": "Point", "coordinates": [ -73.970533251720383, 40.756138161021944 ] } },
{ "type": "Feature", "properties": { "Loc": 62.0, "Borough": "Manhattan", "Street_Nam": "Lexington Avenue", "From_Stree": "50th Street", "To_Street": "51st Street", "Index": "N" }, "geometry": { "type": "Point", "coordinates": [ -73.972134044066138, 40.756811407302457 ] } },
{ "type": "Feature", "properties": { "Loc": 63.0, "Borough": "Manhattan", "Street_Nam": "Park Avenue", "From_Stree": "50th Street", "To_Street": "51st Street", "Index": "Y" }, "geometry": { "type": "Point", "coordinates": [ -73.973853061543082, 40.757536816957597 ] } },
{ "type": "Feature", "properties": { "Loc": 64.0, "Borough": "Manhattan", "Street_Nam": "Madison Avenue", "From_Stree": "50th Street", "To_Street": "51st Street", "Index": "N" }, "geometry": { "type": "Point", "coordinates": [ -73.975362860529913, 40.758173996404366 ] } },
{ "type": "Feature", "properties": { "Loc": 65.0, "Borough": "Manhattan", "Street_Nam": "Fifth Avenue", "From_Stree": "50th Street", "To_Street": "51st Street", "Index": "N" }, "geometry": { "type": "Point", "coordinates": [ -73.976972690146624, 40.758851921871177 ] } },
{ "type": "Feature", "properties": { "Loc": 66.0, "Borough": "Manhattan", "Street_Nam": "Sixth Avenue", "From_Stree": "50th Street", "To_Street": "51st Street", "Index": "N" }, "geometry": { "type": "Point", "coordinates": [ -73.980198917236592, 40.760212340178775 ] } },
{ "type": "Feature", "properties": { "Loc": 67.0, "Borough": "Manhattan", "Street_Nam": "Seventh Avenue", "From_Stree": "50th Street", "To_Street": "51st Street", "Index": "N" }, "geometry": { "type": "Point", "coordinates": [ -73.983035315723782, 40.761406668705781 ] } },
{ "type": "Feature", "properties": { "Loc": 68.0, "Borough": "Manhattan", "Street_Nam": "Broadway", "From_Stree": "50th Street", "To_Street": "51st Street", "Index": "Y" }, "geometry": { "type": "Point", "coordinates": [ -73.983839439643035, 40.76174450334841 ] } },
{ "type": "Feature", "properties": { "Loc": 69.0, "Borough": "Manhattan", "Street_Nam": "Eighth Avenue", "From_Stree": "50th Street", "To_Street": "51st Street", "Index": "N" }, "geometry": { "type": "Point", "coordinates": [ -73.985898917331156, 40.762571194059603 ] } },
{ "type": "Feature", "properties": { "Loc": 70.0, "Borough": "Manhattan", "Street_Nam": "Hudson River Greenway", "From_Stree": "50th Street", "To_Street": "51st Street", "Index": "N" }, "geometry": { "type": "Point", "coordinates": [ -73.996944099257462, 40.767312953209228 ] } },
{ "type": "Feature", "properties": { "Loc": 71.0, "Borough": "Queens", "Street_Nam": "165th Street", "From_Stree": "89th Avenue", "To_Street": "Jamaica Avenue", "Index": "N" }, "geometry": { "type": "Point", "coordinates": [ -73.795554463674847, 40.706535024631798 ] } },
{ "type": "Feature", "properties": { "Loc": 72.0, "Borough": "Queens", "Street_Nam": "37th Avenue", "From_Stree": "73rd Street", "To_Street": "74th Street", "Index": "Y" }, "geometry": { "type": "Point", "coordinates": [ -73.892253682279929, 40.748912226892195 ] } },
{ "type": "Feature", "properties": { "Loc": 73.0, "Borough": "Queens", "Street_Nam": "82nd Street", "From_Stree": "37th Avenue", "To_Street": "Roosevelt Avenue", "Index": "Y" }, "geometry": { "type": "Point", "coordinates": [ -73.884126413382148, 40.74873223349023 ] } },
{ "type": "Feature", "properties": { "Loc": 74.0, "Borough": "Queens", "Street_Nam": "Austin Street", "From_Stree": "71st Ave", "To_Street": "70th Road", "Index": "Y" }, "geometry": { "type": "Point", "coordinates": [ -73.845341474893459, 40.720366443561659 ] } },
{ "type": "Feature", "properties": { "Loc": 75.0, "Borough": "Queens", "Street_Nam": "Bell Boulevard", "From_Stree": "40th Avenue", "To_Street": "41st Avenue", "Index": "N" }, "geometry": { "type": "Point", "coordinates": [ -73.771148962098067, 40.763934212723136 ] } },
{ "type": "Feature", "properties": { "Loc": 76.0, "Borough": "Queens", "Street_Nam": "Fresh Pond Road", "From_Stree": "Cypress Hills Street", "To_Street": "70th Avenue", "Index": "N" }, "geometry": { "type": "Point", "coordinates": [ -73.895303035966108, 40.702877270451424 ] } },
{ "type": "Feature", "properties": { "Loc": 77.0, "Borough": "Queens", "Street_Nam": "Hillside Avenue", "From_Stree": "169th Street", "To_Street": "170th Street", "Index": "Y" }, "geometry": { "type": "Point", "coordinates": [ -73.792478055542318, 40.710920425364357 ] } },
{ "type": "Feature", "properties": { "Loc": 78.0, "Borough": "Queens", "Street_Nam": "Jackson Avenue", "From_Stree": "Queens Street", "To_Street": "42nd Road", "Index": "N" }, "geometry": { "type": "Point", "coordinates": [ -73.939471291187388, 40.748171910591594 ] } },
{ "type": "Feature", "properties": { "Loc": 79.0, "Borough": "Queens", "Street_Nam": "Jamaica Avenue", "From_Stree": "148th Street", "To_Street": "149th Street", "Index": "N" }, "geometry": { "type": "Point", "coordinates": [ -73.80593731824159, 40.701823118110134 ] } },
{ "type": "Feature", "properties": { "Loc": 80.0, "Borough": "Queens", "Street_Nam": "Jamaica Avenue", "From_Stree": "162nd Street", "To_Street": "Guy R. Brewer Boulevard", "Index": "Y" }, "geometry": { "type": "Point", "coordinates": [ -73.797264749959069, 40.704506302011701 ] } },
{ "type": "Feature", "properties": { "Loc": 81.0, "Borough": "Queens", "Street_Nam": "Jamaica Avenue", "From_Stree": "86th Street", "To_Street": "87th Street", "Index": "N" }, "geometry": { "type": "Point", "coordinates": [ -73.857789971921846, 40.692596978010542 ] } },
{ "type": "Feature", "properties": { "Loc": 82.0, "Borough": "Queens", "Street_Nam": "Main Street", "From_Stree": "37th Avenue", "To_Street": "38th Avenue", "Index": "Y" }, "geometry": { "type": "Point", "coordinates": [ -73.830934265239563, 40.761186509399046 ] } },
{ "type": "Feature", "properties": { "Loc": 83.0, "Borough": "Queens", "Street_Nam": "Merrick Boulevard", "From_Stree": "108th Drive", "To_Street": "169th Place", "Index": "N" }, "geometry": { "type": "Point", "coordinates": [ -73.785389964431943, 40.69769412700127 ] } },
{ "type": "Feature", "properties": { "Loc": 84.0, "Borough": "Queens", "Street_Nam": "Mott Avenue", "From_Stree": "Smith Place", "To_Street": "Central Avenue", "Index": "N" }, "geometry": { "type": "Point", "coordinates": [ -73.752500902059424, 40.604024165995241 ] } },
{ "type": "Feature", "properties": { "Loc": 85.0, "Borough": "Queens", "Street_Nam": "Myrtle Avenue", "From_Stree": "Palmetto Street", "To_Street": "Woodbine Street", "Index": "Y" }, "geometry": { "type": "Point", "coordinates": [ -73.910188330989982, 40.699671520136974 ] } },
{ "type": "Feature", "properties": { "Loc": 86.0, "Borough": "Queens", "Street_Nam": "Myrtle Avenue", "From_Stree": "Weirfield Street", "To_Street": "Centre Street", "Index": "N" }, "geometry": { "type": "Point", "coordinates": [ -73.901927066621795, 40.700488211013898 ] } },
{ "type": "Feature", "properties": { "Loc": 87.0, "Borough": "Queens", "Street_Nam": "Northern Boulevard", "From_Stree": "50' East of 161st Street", "To_Street": null, "Index": "N" }, "geometry": { "type": "Point", "coordinates": [ -73.804397284279133, 40.762471457067726 ] } },
{ "type": "Feature", "properties": { "Loc": 88.0, "Borough": "Queens", "Street_Nam": "Prince Street", "From_Stree": "37th Avenue", "To_Street": "38th Avenue", "Index": "N" }, "geometry": { "type": "Point", "coordinates": [ -73.832745465741439, 40.760533265694448 ] } },
{ "type": "Feature", "properties": { "Loc": 89.0, "Borough": "Queens", "Street_Nam": "Queens Boulevard", "From_Stree": "50' East of 80th Road", "To_Street": null, "Index": "N" }, "geometry": { "type": "Point", "coordinates": [ -73.829713764942554, 40.713720200675056 ] } },
{ "type": "Feature", "properties": { "Loc": 90.0, "Borough": "Queens", "Street_Nam": "Queens Boulevard", "From_Stree": "Woodhaven Boulevard", "To_Street": "90th Street", "Index": "N" }, "geometry": { "type": "Point", "coordinates": [ -73.871303148165609, 40.733822969110577 ] } },
{ "type": "Feature", "properties": { "Loc": 91.0, "Borough": "Queens", "Street_Nam": "Queens Plaza North & South", "From_Stree": "Crescent Street", "To_Street": "27th Street", "Index": "N" }, "geometry": { "type": "Point", "coordinates": [ -73.939986032362484, 40.750664250091504 ] } },
{ "type": "Feature", "properties": { "Loc": 92.0, "Borough": "Queens", "Street_Nam": "Roosevelt Avenue", "From_Stree": "Main Street", "To_Street": "Union Street", "Index": "N" }, "geometry": { "type": "Point", "coordinates": [ -73.828188845562423, 40.760054251477754 ] } },
{ "type": "Feature", "properties": { "Loc": 93.0, "Borough": "Queens", "Street_Nam": "Steinway Street", "From_Stree": "31st Avenue", "To_Street": "Broadway", "Index": "N" }, "geometry": { "type": "Point", "coordinates": [ -73.918040397775329, 40.76015560689558 ] } },
{ "type": "Feature", "properties": { "Loc": 94.0, "Borough": "Queens", "Street_Nam": "Sutphin Boulevard", "From_Stree": "89th Avenue", "To_Street": "90th Avenue", "Index": "N" }, "geometry": { "type": "Point", "coordinates": [ -73.808604587831027, 40.703405361251896 ] } },
{ "type": "Feature", "properties": { "Loc": 95.0, "Borough": "Queens", "Street_Nam": "Yellowstone Boulevard", "From_Stree": "Queens Boulevard", "To_Street": "Gerard Place", "Index": "N" }, "geometry": { "type": "Point", "coordinates": [ -73.848406895741661, 40.722725518698439 ] } },
{ "type": "Feature", "properties": { "Loc": 96.0, "Borough": "Staten Island", "Street_Nam": "Forest Avenue", "From_Stree": "Regan Avenue", "To_Street": "Davis Avenue", "Index": "N" }, "geometry": { "type": "Point", "coordinates": [ -74.108576019472267, 40.630171879506364 ] } },
{ "type": "Feature", "properties": { "Loc": 97.0, "Borough": "Staten Island", "Street_Nam": "New Dorp Lane", "From_Stree": "Hylan Boulevard", "To_Street": "Clawson Street", "Index": "N" }, "geometry": { "type": "Point", "coordinates": [ -74.11087224860087, 40.571071193244507 ] } },
{ "type": "Feature", "properties": { "Loc": 98.0, "Borough": "Staten Island", "Street_Nam": "Pedestrian Walkway from Ferry Terminal", "From_Stree": "50' north of Richmond Terrace", "To_Street": null, "Index": "Y" }, "geometry": { "type": "Point", "coordinates": [ -74.075244801314867, 40.642983758508443 ] } },
{ "type": "Feature", "properties": { "Loc": 99.0, "Borough": "Staten Island", "Street_Nam": "Richmond Hill Road", "From_Stree": "400' west of Richmond Terrace", "To_Street": null, "Index": "N" }, "geometry": { "type": "Point", "coordinates": [ -74.16614901500634, 40.588135446946325 ] } },
{ "type": "Feature", "properties": { "Loc": 100.0, "Borough": "Staten Island", "Street_Nam": "Victory Boulevard", "From_Stree": "Bay Street", "To_Street": "Van Duzer Street", "Index": "Y" }, "geometry": { "type": "Point", "coordinates": [ -74.077403369351316, 40.63793303246468 ] } },
{ "type": "Feature", "properties": { "Loc": 101.0, "Borough": "East River Bridges", "Street_Nam": "Brooklyn Bridge", "From_Stree": "midpoint", "To_Street": null, "Index": "N" }, "geometry": { "type": "Point", "coordinates": [ -73.996698049524454, 40.705970636733625 ] } },
{ "type": "Feature", "properties": { "Loc": 102.0, "Borough": "East River Bridges", "Street_Nam": "Manhattan Bridge - North Path", "From_Stree": "midpoint", "To_Street": null, "Index": "N" }, "geometry": { "type": "Point", "coordinates": [ -73.990942150129413, 40.708065873744651 ] } },
{ "type": "Feature", "properties": { "Loc": 103.0, "Borough": "East River Bridges", "Street_Nam": "Manhattan Bridge - South Path", "From_Stree": "midpoint", "To_Street": null, "Index": "N" }, "geometry": { "type": "Point", "coordinates": [ -73.991144359395165, 40.707948962097895 ] } },
{ "type": "Feature", "properties": { "Loc": 104.0, "Borough": "East River Bridges", "Street_Nam": "Williamsburg Bridge", "From_Stree": "midpoint", "To_Street": null, "Index": "N" }, "geometry": { "type": "Point", "coordinates": [ -73.972025073402335, 40.713534243271795 ] } },
{ "type": "Feature", "properties": { "Loc": 105.0, "Borough": "East River Bridges", "Street_Nam": "Queensboro Bridge", "From_Stree": "midpoint", "To_Street": null, "Index": "N" }, "geometry": { "type": "Point", "coordinates": [ -73.954601033394013, 40.756870452062095 ] } },
{ "type": "Feature", "properties": { "Loc": 106.0, "Borough": "Harlem River Bridges", "Street_Nam": "Broadway Bridge", "From_Stree": "midpoint", "To_Street": null, "Index": "N" }, "geometry": { "type": "Point", "coordinates": [ -73.91119982758417, 40.873547782362103 ] } },
{ "type": "Feature", "properties": { "Loc": 107.0, "Borough": "Harlem River Bridges", "Street_Nam": "University Heights Bridge", "From_Stree": "midpoint", "To_Street": null, "Index": "N" }, "geometry": { "type": "Point", "coordinates": [ -73.914889754076853, 40.862770021129954 ] } },
{ "type": "Feature", "properties": { "Loc": 108.0, "Borough": "Harlem River Bridges", "Street_Nam": "Macombs Dam Bridge", "From_Stree": "midpoint", "To_Street": null, "Index": "N" }, "geometry": { "type": "Point", "coordinates": [ -73.933806040627815, 40.828100436131137 ] } },
{ "type": "Feature", "properties": { "Loc": 109.0, "Borough": "Harlem River Bridges", "Street_Nam": "145th Street Bridge", "From_Stree": "midpoint", "To_Street": null, "Index": "N" }, "geometry": { "type": "Point", "coordinates": [ -73.933305072770466, 40.819495439097011 ] } },
{ "type": "Feature", "properties": { "Loc": 110.0, "Borough": "Harlem River Bridges", "Street_Nam": "Madison Avenue Bridge", "From_Stree": "midpoint", "To_Street": null, "Index": "N" }, "geometry": { "type": "Point", "coordinates": [ -73.933133174963018, 40.814131572393251 ] } },
{ "type": "Feature", "properties": { "Loc": 111.0, "Borough": "Harlem River Bridges", "Street_Nam": "Third Avenue Bridge", "From_Stree": "midpoint", "To_Street": null, "Index": "N" }, "geometry": { "type": "Point", "coordinates": [ -73.932529821093055, 40.80755532819046 ] } },
{ "type": "Feature", "properties": { "Loc": 112.0, "Borough": "Harlem River Bridges", "Street_Nam": "Willis Avenue Bridge", "From_Stree": "midpoint", "To_Street": null, "Index": "N" }, "geometry": { "type": "Point", "coordinates": [ -73.928961215032885, 40.803769810033444 ] } },
{ "type": "Feature", "properties": { "Loc": 113.0, "Borough": "Harlem River Bridges", "Street_Nam": "Triborough Bridge (Manhattan span)", "From_Stree": "midpoint", "To_Street": null, "Index": "N" }, "geometry": { "type": "Point", "coordinates": [ -73.92785210409798, 40.800345598946073 ] } },
{ "type": "Feature", "properties": { "Loc": 114.0, "Borough": "Harlem River Bridges", "Street_Nam": "Wards Island Bridge", "From_Stree": "midpoint", "To_Street": null, "Index": "N" }, "geometry": { "type": "Point", "coordinates": [ -73.936866182900459, 40.786112798042637 ] } }
]
}
